{
    "type": "FeatureCollection",
    "features": [
        {
            "type": "Feature",
            "properties": {
                "name": "Al Sulayil"
            },
            "geometry": {
                "type": "Point",
                "coordinates": [
                    45.6116,
                    20.6965
                ]
            }
        },
        {
            "type": "Feature",
            "properties": {
                "name": "ALCA  VLS"
            },
            "geometry": {
                "type": "Point",
                "coordinates": [
                    -44.368,
                    -2.3177
                ]
            }
        },
        {
            "type": "Feature",
            "properties": {
                "name": "ALT 577-1"
            },
            "geometry": {
                "type": "Point",
                "coordinates": [
                    -99.26,
                    34.9256
                ]
            }
        },
        {
            "type": "Feature",
            "properties": {
                "name": "ALT RW17R/35L"
            },
            "geometry": {
                "type": "Point",
                "coordinates": [
                    -99.2738,
                    34.6557
                ]
            }
        },
        {
            "type": "Feature",
            "properties": {
                "name": "Alxa Left Banner Launch Site"
            },
            "geometry": {
                "type": "Point",
                "coordinates": [
                    105.6361,
                    38.8397
                ]
            }
        },
        {
            "type": "Feature",
            "properties": {
                "name": "AMR   LP1"
            },
            "geometry": {
                "type": "Point",
                "coordinates": [
                    -80,
                    28.5
                ]
            }
        },
        {
            "type": "Feature",
            "properties": {
                "name": "AND   Athena"
            },
            "geometry": {
                "type": "Point",
                "coordinates": [
                    16.0207,
                    69.2943
                ]
            }
        },
        {
            "type": "Feature",
            "properties": {
                "name": "AND   LC10"
            },
            "geometry": {
                "type": "Point",
                "coordinates": [
                    16.0185,
                    69.294
                ]
            }
        },
        {
            "type": "Feature",
            "properties": {
                "name": "AND   LC5"
            },
            "geometry": {
                "type": "Point",
                "coordinates": [
                    16.0198,
                    69.2944
                ]
            }
        },
        {
            "type": "Feature",
            "properties": {
                "name": "AND   LC9"
            },
            "geometry": {
                "type": "Point",
                "coordinates": [
                    16.0188,
                    69.2941
                ]
            }
        },
        {
            "type": "Feature",
            "properties": {
                "name": "AND   U3"
            },
            "geometry": {
                "type": "Point",
                "coordinates": [
                    16.0207,
                    69.2943
                ]
            }
        },
        {
            "type": "Feature",
            "properties": {
                "name": "Anhueng LP1"
            },
            "geometry": {
                "type": "Point",
                "coordinates": [
                    126.2375,
                    36.6048
                ]
            }
        },
        {
            "type": "Feature",
            "properties": {
                "name": "Anhueng LP2"
            },
            "geometry": {
                "type": "Point",
                "coordinates": [
                    125.6944,
                    36.6422
                ]
            }
        },
        {
            "type": "Feature",
            "properties": {
                "name": "Anhueng LP3"
            },
            "geometry": {
                "type": "Point",
                "coordinates": [
                    125.9086,
                    35.1355
                ]
            }
        },
        {
            "type": "Feature",
            "properties": {
                "name": "Area 51 RW14/32"
            },
            "geometry": {
                "type": "Point",
                "coordinates": [
                    115.802,
                    37.2375
                ]
            }
        },
        {
            "type": "Feature",
            "properties": {
                "name": "ASK t'Harde"
            },
            "geometry": {
                "type": "Point",
                "coordinates": [
                    5.9232,
                    52.3947
                ]
            }
        },
        {
            "type": "Feature",
            "properties": {
                "name": "Audierne LP1"
            },
            "geometry": {
                "type": "Point",
                "coordinates": [
                    -4.05,
                    47.63
                ]
            }
        },
        {
            "type": "Feature",
            "properties": {
                "name": "Audierne LP1"
            },
            "geometry": {
                "type": "Point",
                "coordinates": [
                    -4.15,
                    47.65
                ]
            }
        },
        {
            "type": "Feature",
            "properties": {
                "name": "Baikonur Cosmodrome"
            },
            "geometry": {
                "type": "Point",
                "coordinates": [
                    63.3058,
                    45.9633
                ]
            }
        },
        {
            "type": "Feature",
            "properties": {
                "name": "Balkash LC35"
            },
            "geometry": {
                "type": "Point",
                "coordinates": [
                    72.87,
                    46.38
                ]
            }
        },
        {
            "type": "Feature",
            "properties": {
                "name": "Balkash LC35"
            },
            "geometry": {
                "type": "Point",
                "coordinates": [
                    72.87,
                    46.38
                ]
            }
        },
        {
            "type": "Feature",
            "properties": {
                "name": "Balkash LC35"
            },
            "geometry": {
                "type": "Point",
                "coordinates": [
                    72.87,
                    46.38
                ]
            }
        },
        {
            "type": "Feature",
            "properties": {
                "name": "Balkash LC6"
            },
            "geometry": {
                "type": "Point",
                "coordinates": [
                    72.87,
                    46.38
                ]
            }
        },
        {
            "type": "Feature",
            "properties": {
                "name": "Barksdale AFB"
            },
            "geometry": {
                "type": "Point",
                "coordinates": [
                    -93.6624,
                    32.5015
                ]
            }
        },
        {
            "type": "Feature",
            "properties": {
                "name": "BHOT"
            },
            "geometry": {
                "type": "Point",
                "coordinates": [
                    105.6038,
                    38.7523
                ]
            }
        },
        {
            "type": "Feature",
            "properties": {
                "name": "BHOT"
            },
            "geometry": {
                "type": "Point",
                "coordinates": [
                    105.6078,
                    38.7577
                ]
            }
        },
        {
            "type": "Feature",
            "properties": {
                "name": "BHOT"
            },
            "geometry": {
                "type": "Point",
                "coordinates": [
                    105.6103,
                    38.7582
                ]
            }
        },
        {
            "type": "Feature",
            "properties": {
                "name": "BLA   LP1"
            },
            "geometry": {
                "type": "Point",
                "coordinates": [
                    34.2,
                    69.5
                ]
            }
        },
        {
            "type": "Feature",
            "properties": {
                "name": "Black Rock LP1"
            },
            "geometry": {
                "type": "Point",
                "coordinates": [
                    119.1081,
                    40.8704
                ]
            }
        },
        {
            "type": "Feature",
            "properties": {
                "name": "Bloodhound 1"
            },
            "geometry": {
                "type": "Point",
                "coordinates": [
                    -4.5711,
                    52.1413
                ]
            }
        },
        {
            "type": "Feature",
            "properties": {
                "name": "Bloodhound 2"
            },
            "geometry": {
                "type": "Point",
                "coordinates": [
                    -4.5705,
                    52.1413
                ]
            }
        },
        {
            "type": "Feature",
            "properties": {
                "name": "CALEB"
            },
            "geometry": {
                "type": "Point",
                "coordinates": [
                    121,
                    34
                ]
            }
        },
        {
            "type": "Feature",
            "properties": {
                "name": "CAZ"
            },
            "geometry": {
                "type": "Point",
                "coordinates": [
                    -1.113,
                    44.5397
                ]
            }
        },
        {
            "type": "Feature",
            "properties": {
                "name": "CC    LaC1"
            },
            "geometry": {
                "type": "Point",
                "coordinates": [
                    -80.5446,
                    28.4859
                ]
            }
        },
        {
            "type": "Feature",
            "properties": {
                "name": "CC    LC17"
            },
            "geometry": {
                "type": "Point",
                "coordinates": [
                    -80.5649,
                    28.4472
                ]
            }
        },
        {
            "type": "Feature",
            "properties": {
                "name": "CC    LC20"
            },
            "geometry": {
                "type": "Point",
                "coordinates": [
                    -80.557,
                    28.5119
                ]
            }
        },
        {
            "type": "Feature",
            "properties": {
                "name": "CC    LC36A"
            },
            "geometry": {
                "type": "Point",
                "coordinates": [
                    -80.5377,
                    28.471
                ]
            }
        },
        {
            "type": "Feature",
            "properties": {
                "name": "CC    LC36B"
            },
            "geometry": {
                "type": "Point",
                "coordinates": [
                    -80.5411,
                    28.4681
                ]
            }
        },
        {
            "type": "Feature",
            "properties": {
                "name": "CC    LC40"
            },
            "geometry": {
                "type": "Point",
                "coordinates": [
                    -80.5772,
                    28.562
                ]
            }
        },
        {
            "type": "Feature",
            "properties": {
                "name": "CC    LC41"
            },
            "geometry": {
                "type": "Point",
                "coordinates": [
                    -80.5831,
                    28.5833
                ]
            }
        },
        {
            "type": "Feature",
            "properties": {
                "name": "CC    PAFB/800"
            },
            "geometry": {
                "type": "Point",
                "coordinates": [
                    -80.6,
                    28.24
                ]
            }
        },
        {
            "type": "Feature",
            "properties": {
                "name": "CC    RW 31/13"
            },
            "geometry": {
                "type": "Point",
                "coordinates": [
                    -80.5665,
                    28.4675
                ]
            }
        },
        {
            "type": "Feature",
            "properties": {
                "name": "CC    RW 31/13"
            },
            "geometry": {
                "type": "Point",
                "coordinates": [
                    -80.5665,
                    28.4675
                ]
            }
        },
        {
            "type": "Feature",
            "properties": {
                "name": "CC    SLC17A"
            },
            "geometry": {
                "type": "Point",
                "coordinates": [
                    -80.5649,
                    28.4472
                ]
            }
        },
        {
            "type": "Feature",
            "properties": {
                "name": "CC    SLC17B"
            },
            "geometry": {
                "type": "Point",
                "coordinates": [
                    -80.5656,
                    28.4458
                ]
            }
        },
        {
            "type": "Feature",
            "properties": {
                "name": "CC    SLC20"
            },
            "geometry": {
                "type": "Point",
                "coordinates": [
                    -80.557,
                    28.5119
                ]
            }
        },
        {
            "type": "Feature",
            "properties": {
                "name": "CC    SLC36A"
            },
            "geometry": {
                "type": "Point",
                "coordinates": [
                    -80.5377,
                    28.471
                ]
            }
        },
        {
            "type": "Feature",
            "properties": {
                "name": "CC    SLC36B"
            },
            "geometry": {
                "type": "Point",
                "coordinates": [
                    -80.5411,
                    28.4681
                ]
            }
        },
        {
            "type": "Feature",
            "properties": {
                "name": "CC    SLC37B"
            },
            "geometry": {
                "type": "Point",
                "coordinates": [
                    -80.565,
                    28.5315
                ]
            }
        },
        {
            "type": "Feature",
            "properties": {
                "name": "CC    SLC40"
            },
            "geometry": {
                "type": "Point",
                "coordinates": [
                    -80.5772,
                    28.562
                ]
            }
        },
        {
            "type": "Feature",
            "properties": {
                "name": "CC    SLC41"
            },
            "geometry": {
                "type": "Point",
                "coordinates": [
                    -80.5831,
                    28.5833
                ]
            }
        },
        {
            "type": "Feature",
            "properties": {
                "name": "CC LC43"
            },
            "geometry": {
                "type": "Point",
                "coordinates": [
                    -80.5,
                    28.5
                ]
            }
        },
        {
            "type": "Feature",
            "properties": {
                "name": "CC LC43D"
            },
            "geometry": {
                "type": "Point",
                "coordinates": [
                    -80.5,
                    28.5
                ]
            }
        },
        {
            "type": "Feature",
            "properties": {
                "name": "CC LC46"
            },
            "geometry": {
                "type": "Point",
                "coordinates": [
                    -80.5272,
                    28.4583
                ]
            }
        },
        {
            "type": "Feature",
            "properties": {
                "name": "CC LC47"
            },
            "geometry": {
                "type": "Point",
                "coordinates": [
                    -80.53,
                    28.46
                ]
            }
        },
        {
            "type": "Feature",
            "properties": {
                "name": "CCSP"
            },
            "geometry": {
                "type": "Point",
                "coordinates": [
                    -80.6944,
                    28.6149
                ]
            }
        },
        {
            "type": "Feature",
            "properties": {
                "name": "CEL   BE"
            },
            "geometry": {
                "type": "Point",
                "coordinates": [
                    -1.259,
                    44.255
                ]
            }
        },
        {
            "type": "Feature",
            "properties": {
                "name": "CEL   BESA"
            },
            "geometry": {
                "type": "Point",
                "coordinates": [
                    -1.245,
                    44.393
                ]
            }
        },
        {
            "type": "Feature",
            "properties": {
                "name": "CEL   BLB"
            },
            "geometry": {
                "type": "Point",
                "coordinates": [
                    -1.25,
                    44.362
                ]
            }
        },
        {
            "type": "Feature",
            "properties": {
                "name": "CEL   BP"
            },
            "geometry": {
                "type": "Point",
                "coordinates": [
                    -1.246,
                    44.372
                ]
            }
        },
        {
            "type": "Feature",
            "properties": {
                "name": "CEL   BS"
            },
            "geometry": {
                "type": "Point",
                "coordinates": [
                    -1.262,
                    44.282
                ]
            }
        },
        {
            "type": "Feature",
            "properties": {
                "name": "CEL   CE"
            },
            "geometry": {
                "type": "Point",
                "coordinates": [
                    -1.25,
                    44.45
                ]
            }
        },
        {
            "type": "Feature",
            "properties": {
                "name": "CEL   SUD"
            },
            "geometry": {
                "type": "Point",
                "coordinates": [
                    -1.263,
                    44.3
                ]
            }
        },
        {
            "type": "Feature",
            "properties": {
                "name": "CEL   ZLS"
            },
            "geometry": {
                "type": "Point",
                "coordinates": [
                    -1.7,
                    44.36
                ]
            }
        },
        {
            "type": "Feature",
            "properties": {
                "name": "Celtic Sea"
            },
            "geometry": {
                "type": "Point",
                "coordinates": [
                    -11.12,
                    50.74
                ]
            }
        },
        {
            "type": "Feature",
            "properties": {
                "name": "CERES Nemo"
            },
            "geometry": {
                "type": "Point",
                "coordinates": [
                    6.47,
                    43.05
                ]
            }
        },
        {
            "type": "Feature",
            "properties": {
                "name": "CHAN  IC3"
            },
            "geometry": {
                "type": "Point",
                "coordinates": [
                    86.6,
                    21.3
                ]
            }
        },
        {
            "type": "Feature",
            "properties": {
                "name": "CHAN  IC3 SEA"
            },
            "geometry": {
                "type": "Point",
                "coordinates": [
                    86.5,
                    19.5
                ]
            }
        },
        {
            "type": "Feature",
            "properties": {
                "name": "CHAN  IC4"
            },
            "geometry": {
                "type": "Point",
                "coordinates": [
                    87.0884,
                    20.7553
                ]
            }
        },
        {
            "type": "Feature",
            "properties": {
                "name": "CHAN  IC4/TEL"
            },
            "geometry": {
                "type": "Point",
                "coordinates": [
                    87.07,
                    20.75
                ]
            }
        },
        {
            "type": "Feature",
            "properties": {
                "name": "CHAN  ITR"
            },
            "geometry": {
                "type": "Point",
                "coordinates": [
                    86.6,
                    21.3
                ]
            }
        },
        {
            "type": "Feature",
            "properties": {
                "name": "CHM   PS"
            },
            "geometry": {
                "type": "Point",
                "coordinates": [
                    33.5,
                    44.6
                ]
            }
        },
        {
            "type": "Feature",
            "properties": {
                "name": "CLBI  MAN"
            },
            "geometry": {
                "type": "Point",
                "coordinates": [
                    -35.383,
                    -5.866
                ]
            }
        },
        {
            "type": "Feature",
            "properties": {
                "name": "Corn Ranch, Van Horn, Texas"
            },
            "geometry": {
                "type": "Point",
                "coordinates": [
                    -104.4532,
                    31.2524
                ]
            }
        },
        {
            "type": "Feature",
            "properties": {
                "name": "CSG   ELS"
            },
            "geometry": {
                "type": "Point",
                "coordinates": [
                    -52.8344,
                    5.305
                ]
            }
        },
        {
            "type": "Feature",
            "properties": {
                "name": "Da Qaidam"
            },
            "geometry": {
                "type": "Point",
                "coordinates": [
                    95.4302,
                    37.7922
                ]
            }
        },
        {
            "type": "Feature",
            "properties": {
                "name": "Da Qaidam"
            },
            "geometry": {
                "type": "Point",
                "coordinates": [
                    95.2841,
                    37.8919
                ]
            }
        },
        {
            "type": "Feature",
            "properties": {
                "name": "Da Qaidam"
            },
            "geometry": {
                "type": "Point",
                "coordinates": [
                    95.24,
                    37.9023
                ]
            }
        },
        {
            "type": "Feature",
            "properties": {
                "name": "Da Qaidam"
            },
            "geometry": {
                "type": "Point",
                "coordinates": [
                    95.1748,
                    37.9237
                ]
            }
        },
        {
            "type": "Feature",
            "properties": {
                "name": "Da Qaidam"
            },
            "geometry": {
                "type": "Point",
                "coordinates": [
                    95.2103,
                    37.9388
                ]
            }
        },
        {
            "type": "Feature",
            "properties": {
                "name": "Da Qaidam"
            },
            "geometry": {
                "type": "Point",
                "coordinates": [
                    95.144,
                    37.9405
                ]
            }
        },
        {
            "type": "Feature",
            "properties": {
                "name": "Da Qaidam"
            },
            "geometry": {
                "type": "Point",
                "coordinates": [
                    95.2887,
                    37.9487
                ]
            }
        },
        {
            "type": "Feature",
            "properties": {
                "name": "Da Qaidam"
            },
            "geometry": {
                "type": "Point",
                "coordinates": [
                    95.1365,
                    37.9669
                ]
            }
        },
        {
            "type": "Feature",
            "properties": {
                "name": "Da Qaidam"
            },
            "geometry": {
                "type": "Point",
                "coordinates": [
                    95.0413,
                    38.0268
                ]
            }
        },
        {
            "type": "Feature",
            "properties": {
                "name": "Da Qaidam"
            },
            "geometry": {
                "type": "Point",
                "coordinates": [
                    94.9878,
                    38.063
                ]
            }
        },
        {
            "type": "Feature",
            "properties": {
                "name": "Da Qaidam"
            },
            "geometry": {
                "type": "Point",
                "coordinates": [
                    94.559,
                    38.0782
                ]
            }
        },
        {
            "type": "Feature",
            "properties": {
                "name": "Da Qaidam"
            },
            "geometry": {
                "type": "Point",
                "coordinates": [
                    94.9679,
                    38.0857
                ]
            }
        },
        {
            "type": "Feature",
            "properties": {
                "name": "Da Qaidam"
            },
            "geometry": {
                "type": "Point",
                "coordinates": [
                    94.5877,
                    38.0961
                ]
            }
        },
        {
            "type": "Feature",
            "properties": {
                "name": "Da Qaidam"
            },
            "geometry": {
                "type": "Point",
                "coordinates": [
                    94.5255,
                    38.098
                ]
            }
        },
        {
            "type": "Feature",
            "properties": {
                "name": "Da Qaidam"
            },
            "geometry": {
                "type": "Point",
                "coordinates": [
                    94.5624,
                    38.0997
                ]
            }
        },
        {
            "type": "Feature",
            "properties": {
                "name": "Da Qaidam"
            },
            "geometry": {
                "type": "Point",
                "coordinates": [
                    94.948,
                    38.11
                ]
            }
        },
        {
            "type": "Feature",
            "properties": {
                "name": "Da Qaidam"
            },
            "geometry": {
                "type": "Point",
                "coordinates": [
                    94.4929,
                    38.1207
                ]
            }
        },
        {
            "type": "Feature",
            "properties": {
                "name": "Da Qaidam"
            },
            "geometry": {
                "type": "Point",
                "coordinates": [
                    94.9295,
                    38.1348
                ]
            }
        },
        {
            "type": "Feature",
            "properties": {
                "name": "Da Qaidam"
            },
            "geometry": {
                "type": "Point",
                "coordinates": [
                    94.4531,
                    38.1383
                ]
            }
        },
        {
            "type": "Feature",
            "properties": {
                "name": "Delingha"
            },
            "geometry": {
                "type": "Point",
                "coordinates": [
                    97.0558,
                    37.376
                ]
            }
        },
        {
            "type": "Feature",
            "properties": {
                "name": "Delingha"
            },
            "geometry": {
                "type": "Point",
                "coordinates": [
                    97.028,
                    37.4076
                ]
            }
        },
        {
            "type": "Feature",
            "properties": {
                "name": "Dengshahe LP1"
            },
            "geometry": {
                "type": "Point",
                "coordinates": [
                    122.0805,
                    39.1522
                ]
            }
        },
        {
            "type": "Feature",
            "properties": {
                "name": "Dengshahe LP2"
            },
            "geometry": {
                "type": "Point",
                "coordinates": [
                    122.083,
                    39.1514
                ]
            }
        },
        {
            "type": "Feature",
            "properties": {
                "name": "Dombarovsky Air Base"
            },
            "geometry": {
                "type": "Point",
                "coordinates": [
                    59.9108,
                    51.9525
                ]
            }
        },
        {
            "type": "Feature",
            "properties": {
                "name": "DYESS"
            },
            "geometry": {
                "type": "Point",
                "coordinates": [
                    -99.8547,
                    32.4208
                ]
            }
        },
        {
            "type": "Feature",
            "properties": {
                "name": "DZKW  -"
            },
            "geometry": {
                "type": "Point",
                "coordinates": [
                    167.7,
                    7.65
                ]
            }
        },
        {
            "type": "Feature",
            "properties": {
                "name": "EAFB"
            },
            "geometry": {
                "type": "Point",
                "coordinates": [
                    117.8,
                    34.9
                ]
            }
        },
        {
            "type": "Feature",
            "properties": {
                "name": "EAFB  RW04"
            },
            "geometry": {
                "type": "Point",
                "coordinates": [
                    117.9019,
                    34.896
                ]
            }
        },
        {
            "type": "Feature",
            "properties": {
                "name": "EAFB  RW04/22"
            },
            "geometry": {
                "type": "Point",
                "coordinates": [
                    117.8837,
                    34.9054
                ]
            }
        },
        {
            "type": "Feature",
            "properties": {
                "name": "EAFB  RW04L"
            },
            "geometry": {
                "type": "Point",
                "coordinates": [
                    117.9018,
                    34.9043
                ]
            }
        },
        {
            "type": "Feature",
            "properties": {
                "name": "EAFB  RW04L/22R"
            },
            "geometry": {
                "type": "Point",
                "coordinates": [
                    117.8882,
                    34.9112
                ]
            }
        },
        {
            "type": "Feature",
            "properties": {
                "name": "EAFB  RW05"
            },
            "geometry": {
                "type": "Point",
                "coordinates": [
                    117.8612,
                    34.9493
                ]
            }
        },
        {
            "type": "Feature",
            "properties": {
                "name": "EAFB  RW05"
            },
            "geometry": {
                "type": "Point",
                "coordinates": [
                    117.8191,
                    34.9661
                ]
            }
        },
        {
            "type": "Feature",
            "properties": {
                "name": "EAFB  RW06"
            },
            "geometry": {
                "type": "Point",
                "coordinates": [
                    117.8814,
                    34.8948
                ]
            }
        },
        {
            "type": "Feature",
            "properties": {
                "name": "EAFB  RW07"
            },
            "geometry": {
                "type": "Point",
                "coordinates": [
                    117.8968,
                    34.8406
                ]
            }
        },
        {
            "type": "Feature",
            "properties": {
                "name": "EAFB  RW15"
            },
            "geometry": {
                "type": "Point",
                "coordinates": [
                    117.8694,
                    34.97
                ]
            }
        },
        {
            "type": "Feature",
            "properties": {
                "name": "EAFB  RW18"
            },
            "geometry": {
                "type": "Point",
                "coordinates": [
                    117.8748,
                    34.9928
                ]
            }
        },
        {
            "type": "Feature",
            "properties": {
                "name": "EAFB  RW18/36"
            },
            "geometry": {
                "type": "Point",
                "coordinates": [
                    117.86,
                    34.9626
                ]
            }
        },
        {
            "type": "Feature",
            "properties": {
                "name": "EAFB  RW22"
            },
            "geometry": {
                "type": "Point",
                "coordinates": [
                    117.8309,
                    34.9324
                ]
            }
        },
        {
            "type": "Feature",
            "properties": {
                "name": "EAFB  RW22R"
            },
            "geometry": {
                "type": "Point",
                "coordinates": [
                    117.8738,
                    34.9185
                ]
            }
        },
        {
            "type": "Feature",
            "properties": {
                "name": "EAFB  RW24"
            },
            "geometry": {
                "type": "Point",
                "coordinates": [
                    117.8202,
                    34.9059
                ]
            }
        },
        {
            "type": "Feature",
            "properties": {
                "name": "EAFB  RW25"
            },
            "geometry": {
                "type": "Point",
                "coordinates": [
                    117.8222,
                    34.8474
                ]
            }
        },
        {
            "type": "Feature",
            "properties": {
                "name": "EAFB  RW30"
            },
            "geometry": {
                "type": "Point",
                "coordinates": [
                    117.8479,
                    34.9335
                ]
            }
        },
        {
            "type": "Feature",
            "properties": {
                "name": "EAFB  RW33"
            },
            "geometry": {
                "type": "Point",
                "coordinates": [
                    117.8512,
                    34.9029
                ]
            }
        },
        {
            "type": "Feature",
            "properties": {
                "name": "EAFB  RW36"
            },
            "geometry": {
                "type": "Point",
                "coordinates": [
                    117.8715,
                    34.9358
                ]
            }
        },
        {
            "type": "Feature",
            "properties": {
                "name": "EAFB  TL1"
            },
            "geometry": {
                "type": "Point",
                "coordinates": [
                    117.6448,
                    34.9527
                ]
            }
        },
        {
            "type": "Feature",
            "properties": {
                "name": "EAFB  TL2"
            },
            "geometry": {
                "type": "Point",
                "coordinates": [
                    117.6461,
                    34.9526
                ]
            }
        },
        {
            "type": "Feature",
            "properties": {
                "name": "Elephant Butte"
            },
            "geometry": {
                "type": "Point",
                "coordinates": [
                    107,
                    33.2
                ]
            }
        },
        {
            "type": "Feature",
            "properties": {
                "name": "Elephant Butte"
            },
            "geometry": {
                "type": "Point",
                "coordinates": [
                    107.1015,
                    33.2092
                ]
            }
        },
        {
            "type": "Feature",
            "properties": {
                "name": "Elephant Butte"
            },
            "geometry": {
                "type": "Point",
                "coordinates": [
                    107.1146,
                    33.2306
                ]
            }
        },
        {
            "type": "Feature",
            "properties": {
                "name": "Elephant Butte"
            },
            "geometry": {
                "type": "Point",
                "coordinates": [
                    107,
                    33.31
                ]
            }
        },
        {
            "type": "Feature",
            "properties": {
                "name": "ELLS  N2"
            },
            "geometry": {
                "type": "Point",
                "coordinates": [
                    103.423,
                    44.8558
                ]
            }
        },
        {
            "type": "Feature",
            "properties": {
                "name": "ELLS  RW13/31"
            },
            "geometry": {
                "type": "Point",
                "coordinates": [
                    103.1008,
                    44.1429
                ]
            }
        },
        {
            "type": "Feature",
            "properties": {
                "name": "ESR   C"
            },
            "geometry": {
                "type": "Point",
                "coordinates": [
                    21.1042,
                    67.8922
                ]
            }
        },
        {
            "type": "Feature",
            "properties": {
                "name": "ESR   L"
            },
            "geometry": {
                "type": "Point",
                "coordinates": [
                    21.1065,
                    67.8932
                ]
            }
        },
        {
            "type": "Feature",
            "properties": {
                "name": "ESR   LC1"
            },
            "geometry": {
                "type": "Point",
                "coordinates": [
                    21.1057,
                    67.8917
                ]
            }
        },
        {
            "type": "Feature",
            "properties": {
                "name": "ESR   LC1 A"
            },
            "geometry": {
                "type": "Point",
                "coordinates": [
                    21.1045,
                    67.8934
                ]
            }
        },
        {
            "type": "Feature",
            "properties": {
                "name": "ESR   LC3A"
            },
            "geometry": {
                "type": "Point",
                "coordinates": [
                    21.1634,
                    67.8774
                ]
            }
        },
        {
            "type": "Feature",
            "properties": {
                "name": "ESR   LC3B"
            },
            "geometry": {
                "type": "Point",
                "coordinates": [
                    21.1668,
                    67.8765
                ]
            }
        },
        {
            "type": "Feature",
            "properties": {
                "name": "ESR   LC3C"
            },
            "geometry": {
                "type": "Point",
                "coordinates": [
                    21.1676,
                    67.8763
                ]
            }
        },
        {
            "type": "Feature",
            "properties": {
                "name": "ESR   MAN"
            },
            "geometry": {
                "type": "Point",
                "coordinates": [
                    21.1053,
                    67.8932
                ]
            }
        },
        {
            "type": "Feature",
            "properties": {
                "name": "ESR   MRL"
            },
            "geometry": {
                "type": "Point",
                "coordinates": [
                    21.106,
                    67.8932
                ]
            }
        },
        {
            "type": "Feature",
            "properties": {
                "name": "ESR   MRL"
            },
            "geometry": {
                "type": "Point",
                "coordinates": [
                    21.106,
                    67.8932
                ]
            }
        },
        {
            "type": "Feature",
            "properties": {
                "name": "ESR   N"
            },
            "geometry": {
                "type": "Point",
                "coordinates": [
                    21.109,
                    67.8933
                ]
            }
        },
        {
            "type": "Feature",
            "properties": {
                "name": "ESR   N2"
            },
            "geometry": {
                "type": "Point",
                "coordinates": [
                    21.1102,
                    67.8933
                ]
            }
        },
        {
            "type": "Feature",
            "properties": {
                "name": "ESR   N2"
            },
            "geometry": {
                "type": "Point",
                "coordinates": [
                    21.1102,
                    67.8933
                ]
            }
        },
        {
            "type": "Feature",
            "properties": {
                "name": "ESR   S"
            },
            "geometry": {
                "type": "Point",
                "coordinates": [
                    21.107,
                    67.8933
                ]
            }
        },
        {
            "type": "Feature",
            "properties": {
                "name": "ETR   200NM"
            },
            "geometry": {
                "type": "Point",
                "coordinates": [
                    -77.5,
                    26.5
                ]
            }
        },
        {
            "type": "Feature",
            "properties": {
                "name": "ETR   500NM"
            },
            "geometry": {
                "type": "Point",
                "coordinates": [
                    -73.5,
                    23
                ]
            }
        },
        {
            "type": "Feature",
            "properties": {
                "name": "ETR   D4"
            },
            "geometry": {
                "type": "Point",
                "coordinates": [
                    -79,
                    28.5
                ]
            }
        },
        {
            "type": "Feature",
            "properties": {
                "name": "ETR   LP1"
            },
            "geometry": {
                "type": "Point",
                "coordinates": [
                    -79,
                    28.5
                ]
            }
        },
        {
            "type": "Feature",
            "properties": {
                "name": "ETR   LP5"
            },
            "geometry": {
                "type": "Point",
                "coordinates": [
                    -79,
                    28.5
                ]
            }
        },
        {
            "type": "Feature",
            "properties": {
                "name": "ETR   LP6"
            },
            "geometry": {
                "type": "Point",
                "coordinates": [
                    -76.3,
                    28.8
                ]
            }
        },
        {
            "type": "Feature",
            "properties": {
                "name": "ETR   SLBM"
            },
            "geometry": {
                "type": "Point",
                "coordinates": [
                    -80,
                    28.5
                ]
            }
        },
        {
            "type": "Feature",
            "properties": {
                "name": "FTB   MCG"
            },
            "geometry": {
                "type": "Point",
                "coordinates": [
                    106.1524,
                    32.0736
                ]
            }
        },
        {
            "type": "Feature",
            "properties": {
                "name": "FW    LC96"
            },
            "geometry": {
                "type": "Point",
                "coordinates": [
                    108.5995,
                    35.4487
                ]
            }
        },
        {
            "type": "Feature",
            "properties": {
                "name": "GF RW17/35"
            },
            "geometry": {
                "type": "Point",
                "coordinates": [
                    -97.4081,
                    47.953
                ]
            }
        },
        {
            "type": "Feature",
            "properties": {
                "name": "GIK-1 LC131"
            },
            "geometry": {
                "type": "Point",
                "coordinates": [
                    40.8,
                    62.9
                ]
            }
        },
        {
            "type": "Feature",
            "properties": {
                "name": "GIK-1 LC131"
            },
            "geometry": {
                "type": "Point",
                "coordinates": [
                    40.8,
                    62.9
                ]
            }
        },
        {
            "type": "Feature",
            "properties": {
                "name": "GIK-1 LC132"
            },
            "geometry": {
                "type": "Point",
                "coordinates": [
                    40.887,
                    62.893
                ]
            }
        },
        {
            "type": "Feature",
            "properties": {
                "name": "GIK-1 LC132/1"
            },
            "geometry": {
                "type": "Point",
                "coordinates": [
                    40.887,
                    62.893
                ]
            }
        },
        {
            "type": "Feature",
            "properties": {
                "name": "GIK-1 LC132/2"
            },
            "geometry": {
                "type": "Point",
                "coordinates": [
                    40.888,
                    62.893
                ]
            }
        },
        {
            "type": "Feature",
            "properties": {
                "name": "GIK-1 LC133"
            },
            "geometry": {
                "type": "Point",
                "coordinates": [
                    40.867,
                    62.895
                ]
            }
        },
        {
            "type": "Feature",
            "properties": {
                "name": "GIK-1 LC133/1"
            },
            "geometry": {
                "type": "Point",
                "coordinates": [
                    40.867,
                    62.895
                ]
            }
        },
        {
            "type": "Feature",
            "properties": {
                "name": "GIK-1 LC133/3"
            },
            "geometry": {
                "type": "Point",
                "coordinates": [
                    40.868,
                    62.895
                ]
            }
        },
        {
            "type": "Feature",
            "properties": {
                "name": "GIK-1 LC16/2"
            },
            "geometry": {
                "type": "Point",
                "coordinates": [
                    40.68,
                    62.95
                ]
            }
        },
        {
            "type": "Feature",
            "properties": {
                "name": "GIK-1 LC24"
            },
            "geometry": {
                "type": "Point",
                "coordinates": [
                    40.58,
                    62.92
                ]
            }
        },
        {
            "type": "Feature",
            "properties": {
                "name": "GIK-1 LC25"
            },
            "geometry": {
                "type": "Point",
                "coordinates": [
                    40.58,
                    62.92
                ]
            }
        },
        {
            "type": "Feature",
            "properties": {
                "name": "GIK-1 LC25"
            },
            "geometry": {
                "type": "Point",
                "coordinates": [
                    40.58,
                    62.92
                ]
            }
        },
        {
            "type": "Feature",
            "properties": {
                "name": "GIK-1 LC31/12"
            },
            "geometry": {
                "type": "Point",
                "coordinates": [
                    40.8,
                    62.9
                ]
            }
        },
        {
            "type": "Feature",
            "properties": {
                "name": "GIK-1 LC32/1"
            },
            "geometry": {
                "type": "Point",
                "coordinates": [
                    40.8,
                    62.915
                ]
            }
        },
        {
            "type": "Feature",
            "properties": {
                "name": "GIK-1 LC32/1"
            },
            "geometry": {
                "type": "Point",
                "coordinates": [
                    40.8,
                    62.915
                ]
            }
        },
        {
            "type": "Feature",
            "properties": {
                "name": "GIK-1 LC32/2"
            },
            "geometry": {
                "type": "Point",
                "coordinates": [
                    40.801,
                    62.915
                ]
            }
        },
        {
            "type": "Feature",
            "properties": {
                "name": "GIK-1 LC35"
            },
            "geometry": {
                "type": "Point",
                "coordinates": [
                    40.58,
                    62.92
                ]
            }
        },
        {
            "type": "Feature",
            "properties": {
                "name": "GIK-1 LC35"
            },
            "geometry": {
                "type": "Point",
                "coordinates": [
                    40.58,
                    62.92
                ]
            }
        },
        {
            "type": "Feature",
            "properties": {
                "name": "GIK-1 LC41/1"
            },
            "geometry": {
                "type": "Point",
                "coordinates": [
                    40.513,
                    62.93
                ]
            }
        },
        {
            "type": "Feature",
            "properties": {
                "name": "GIK-1 LC43/3"
            },
            "geometry": {
                "type": "Point",
                "coordinates": [
                    40.45,
                    62.93
                ]
            }
        },
        {
            "type": "Feature",
            "properties": {
                "name": "GIK-1 LC43/4"
            },
            "geometry": {
                "type": "Point",
                "coordinates": [
                    40.47,
                    62.93
                ]
            }
        },
        {
            "type": "Feature",
            "properties": {
                "name": "GIK-1 LC5"
            },
            "geometry": {
                "type": "Point",
                "coordinates": [
                    40.58,
                    62.92
                ]
            }
        },
        {
            "type": "Feature",
            "properties": {
                "name": "GIK-1 PU11"
            },
            "geometry": {
                "type": "Point",
                "coordinates": [
                    40.5,
                    62.9
                ]
            }
        },
        {
            "type": "Feature",
            "properties": {
                "name": "GIK-2 LC5"
            },
            "geometry": {
                "type": "Point",
                "coordinates": [
                    128,
                    51.7
                ]
            }
        },
        {
            "type": "Feature",
            "properties": {
                "name": "GIK-5 LC1"
            },
            "geometry": {
                "type": "Point",
                "coordinates": [
                    63.3423,
                    45.9203
                ]
            }
        },
        {
            "type": "Feature",
            "properties": {
                "name": "GIK-5 LC108"
            },
            "geometry": {
                "type": "Point",
                "coordinates": [
                    63.815,
                    46.046
                ]
            }
        },
        {
            "type": "Feature",
            "properties": {
                "name": "GIK-5 LC109"
            },
            "geometry": {
                "type": "Point",
                "coordinates": [
                    63.442,
                    45.944
                ]
            }
        },
        {
            "type": "Feature",
            "properties": {
                "name": "GIK-5 LC109/95"
            },
            "geometry": {
                "type": "Point",
                "coordinates": [
                    63.442,
                    45.944
                ]
            }
        },
        {
            "type": "Feature",
            "properties": {
                "name": "GIK-5 LC110L"
            },
            "geometry": {
                "type": "Point",
                "coordinates": [
                    63.309,
                    45.955
                ]
            }
        },
        {
            "type": "Feature",
            "properties": {
                "name": "GIK-5 LC110R"
            },
            "geometry": {
                "type": "Point",
                "coordinates": [
                    63.314,
                    45.95
                ]
            }
        },
        {
            "type": "Feature",
            "properties": {
                "name": "GIK-5 LC131"
            },
            "geometry": {
                "type": "Point",
                "coordinates": [
                    62.968,
                    46.069
                ]
            }
        },
        {
            "type": "Feature",
            "properties": {
                "name": "GIK-5 LC131"
            },
            "geometry": {
                "type": "Point",
                "coordinates": [
                    62.968,
                    46.069
                ]
            }
        },
        {
            "type": "Feature",
            "properties": {
                "name": "GIK-5 LC131"
            },
            "geometry": {
                "type": "Point",
                "coordinates": [
                    62.968,
                    46.069
                ]
            }
        },
        {
            "type": "Feature",
            "properties": {
                "name": "GIK-5 LC131"
            },
            "geometry": {
                "type": "Point",
                "coordinates": [
                    62.968,
                    46.069
                ]
            }
        },
        {
            "type": "Feature",
            "properties": {
                "name": "GIK-5 LC170"
            },
            "geometry": {
                "type": "Point",
                "coordinates": [
                    63,
                    46
                ]
            }
        },
        {
            "type": "Feature",
            "properties": {
                "name": "GIK-5 LC170"
            },
            "geometry": {
                "type": "Point",
                "coordinates": [
                    63,
                    46
                ]
            }
        },
        {
            "type": "Feature",
            "properties": {
                "name": "GIK-5 LC171"
            },
            "geometry": {
                "type": "Point",
                "coordinates": [
                    63,
                    46
                ]
            }
        },
        {
            "type": "Feature",
            "properties": {
                "name": "GIK-5 LC171"
            },
            "geometry": {
                "type": "Point",
                "coordinates": [
                    63,
                    46
                ]
            }
        },
        {
            "type": "Feature",
            "properties": {
                "name": "GIK-5 LC172"
            },
            "geometry": {
                "type": "Point",
                "coordinates": [
                    63.092,
                    46.065
                ]
            }
        },
        {
            "type": "Feature",
            "properties": {
                "name": "GIK-5 LC172"
            },
            "geometry": {
                "type": "Point",
                "coordinates": [
                    63.092,
                    46.065
                ]
            }
        },
        {
            "type": "Feature",
            "properties": {
                "name": "GIK-5 LC173"
            },
            "geometry": {
                "type": "Point",
                "coordinates": [
                    63,
                    46
                ]
            }
        },
        {
            "type": "Feature",
            "properties": {
                "name": "GIK-5 LC173"
            },
            "geometry": {
                "type": "Point",
                "coordinates": [
                    63,
                    46
                ]
            }
        },
        {
            "type": "Feature",
            "properties": {
                "name": "GIK-5 LC174"
            },
            "geometry": {
                "type": "Point",
                "coordinates": [
                    63,
                    46
                ]
            }
        },
        {
            "type": "Feature",
            "properties": {
                "name": "GIK-5 LC174"
            },
            "geometry": {
                "type": "Point",
                "coordinates": [
                    63,
                    46
                ]
            }
        },
        {
            "type": "Feature",
            "properties": {
                "name": "GIK-5 LC175"
            },
            "geometry": {
                "type": "Point",
                "coordinates": [
                    62.98,
                    46.045
                ]
            }
        },
        {
            "type": "Feature",
            "properties": {
                "name": "GIK-5 LC175/2"
            },
            "geometry": {
                "type": "Point",
                "coordinates": [
                    62.98,
                    46.045
                ]
            }
        },
        {
            "type": "Feature",
            "properties": {
                "name": "GIK-5 LC175/2"
            },
            "geometry": {
                "type": "Point",
                "coordinates": [
                    62.98,
                    46.045
                ]
            }
        },
        {
            "type": "Feature",
            "properties": {
                "name": "GIK-5 LC175/2"
            },
            "geometry": {
                "type": "Point",
                "coordinates": [
                    62.98,
                    46.045
                ]
            }
        },
        {
            "type": "Feature",
            "properties": {
                "name": "GIK-5 LC175/59"
            },
            "geometry": {
                "type": "Point",
                "coordinates": [
                    62.98,
                    46.045
                ]
            }
        },
        {
            "type": "Feature",
            "properties": {
                "name": "GIK-5 LC175/59"
            },
            "geometry": {
                "type": "Point",
                "coordinates": [
                    62.98,
                    46.045
                ]
            }
        },
        {
            "type": "Feature",
            "properties": {
                "name": "GIK-5 LC176"
            },
            "geometry": {
                "type": "Point",
                "coordinates": [
                    63,
                    46
                ]
            }
        },
        {
            "type": "Feature",
            "properties": {
                "name": "GIK-5 LC176"
            },
            "geometry": {
                "type": "Point",
                "coordinates": [
                    63,
                    46
                ]
            }
        },
        {
            "type": "Feature",
            "properties": {
                "name": "GIK-5 LC177"
            },
            "geometry": {
                "type": "Point",
                "coordinates": [
                    63,
                    46
                ]
            }
        },
        {
            "type": "Feature",
            "properties": {
                "name": "GIK-5 LC177"
            },
            "geometry": {
                "type": "Point",
                "coordinates": [
                    63,
                    46
                ]
            }
        },
        {
            "type": "Feature",
            "properties": {
                "name": "GIK-5 LC179"
            },
            "geometry": {
                "type": "Point",
                "coordinates": [
                    63,
                    46
                ]
            }
        },
        {
            "type": "Feature",
            "properties": {
                "name": "GIK-5 LC179"
            },
            "geometry": {
                "type": "Point",
                "coordinates": [
                    63,
                    46
                ]
            }
        },
        {
            "type": "Feature",
            "properties": {
                "name": "GIK-5 LC181"
            },
            "geometry": {
                "type": "Point",
                "coordinates": [
                    63,
                    46
                ]
            }
        },
        {
            "type": "Feature",
            "properties": {
                "name": "GIK-5 LC181"
            },
            "geometry": {
                "type": "Point",
                "coordinates": [
                    63,
                    46
                ]
            }
        },
        {
            "type": "Feature",
            "properties": {
                "name": "GIK-5 LC200/39"
            },
            "geometry": {
                "type": "Point",
                "coordinates": [
                    63.037,
                    46.035
                ]
            }
        },
        {
            "type": "Feature",
            "properties": {
                "name": "GIK-5 LC200/40"
            },
            "geometry": {
                "type": "Point",
                "coordinates": [
                    63.044,
                    46.031
                ]
            }
        },
        {
            "type": "Feature",
            "properties": {
                "name": "GIK-5 LC250"
            },
            "geometry": {
                "type": "Point",
                "coordinates": [
                    63.309,
                    45.995
                ]
            }
        },
        {
            "type": "Feature",
            "properties": {
                "name": "GIK-5 LC31"
            },
            "geometry": {
                "type": "Point",
                "coordinates": [
                    63.5641,
                    45.996
                ]
            }
        },
        {
            "type": "Feature",
            "properties": {
                "name": "GIK-5 LC44"
            },
            "geometry": {
                "type": "Point",
                "coordinates": [
                    63.622,
                    45.926
                ]
            }
        },
        {
            "type": "Feature",
            "properties": {
                "name": "GIK-5 LC45/1"
            },
            "geometry": {
                "type": "Point",
                "coordinates": [
                    63.622,
                    45.926
                ]
            }
        },
        {
            "type": "Feature",
            "properties": {
                "name": "GIK-5 LC45/2"
            },
            "geometry": {
                "type": "Point",
                "coordinates": [
                    63.627,
                    45.93
                ]
            }
        },
        {
            "type": "Feature",
            "properties": {
                "name": "GIK-5 LC81/23"
            },
            "geometry": {
                "type": "Point",
                "coordinates": [
                    62.983,
                    46.059
                ]
            }
        },
        {
            "type": "Feature",
            "properties": {
                "name": "GIK-5 LC81/24"
            },
            "geometry": {
                "type": "Point",
                "coordinates": [
                    62.99,
                    46.067
                ]
            }
        },
        {
            "type": "Feature",
            "properties": {
                "name": "GIK-5 LC90"
            },
            "geometry": {
                "type": "Point",
                "coordinates": [
                    62.935,
                    46.081
                ]
            }
        },
        {
            "type": "Feature",
            "properties": {
                "name": "GIK-5 LC90/19"
            },
            "geometry": {
                "type": "Point",
                "coordinates": [
                    62.935,
                    46.081
                ]
            }
        },
        {
            "type": "Feature",
            "properties": {
                "name": "GIK-5 LC90/20"
            },
            "geometry": {
                "type": "Point",
                "coordinates": [
                    62.936,
                    46.081
                ]
            }
        },
        {
            "type": "Feature",
            "properties": {
                "name": "GIK-5 PL251"
            },
            "geometry": {
                "type": "Point",
                "coordinates": [
                    63.324,
                    46.029
                ]
            }
        },
        {
            "type": "Feature",
            "properties": {
                "name": "GIK-5 PU31"
            },
            "geometry": {
                "type": "Point",
                "coordinates": [
                    63,
                    46
                ]
            }
        },
        {
            "type": "Feature",
            "properties": {
                "name": "GIK-5 PU32"
            },
            "geometry": {
                "type": "Point",
                "coordinates": [
                    63,
                    46
                ]
            }
        },
        {
            "type": "Feature",
            "properties": {
                "name": "GIK-5 PU33"
            },
            "geometry": {
                "type": "Point",
                "coordinates": [
                    63,
                    46
                ]
            }
        },
        {
            "type": "Feature",
            "properties": {
                "name": "GMS60AM9002"
            },
            "geometry": {
                "type": "Point",
                "coordinates": [
                    175.7,
                    36.7
                ]
            }
        },
        {
            "type": "Feature",
            "properties": {
                "name": "GMS60AM9003"
            },
            "geometry": {
                "type": "Point",
                "coordinates": [
                    169.4,
                    26
                ]
            }
        },
        {
            "type": "Feature",
            "properties": {
                "name": "GMS60AM9004"
            },
            "geometry": {
                "type": "Point",
                "coordinates": [
                    167,
                    23.1
                ]
            }
        },
        {
            "type": "Feature",
            "properties": {
                "name": "GMS60AM9005"
            },
            "geometry": {
                "type": "Point",
                "coordinates": [
                    163.4,
                    20.5
                ]
            }
        },
        {
            "type": "Feature",
            "properties": {
                "name": "GMS60AM9006"
            },
            "geometry": {
                "type": "Point",
                "coordinates": [
                    160.1,
                    18.1
                ]
            }
        },
        {
            "type": "Feature",
            "properties": {
                "name": "GMS60AM9007"
            },
            "geometry": {
                "type": "Point",
                "coordinates": [
                    157.2,
                    16.1
                ]
            }
        },
        {
            "type": "Feature",
            "properties": {
                "name": "GMS60AM9008"
            },
            "geometry": {
                "type": "Point",
                "coordinates": [
                    155.2,
                    14.4
                ]
            }
        },
        {
            "type": "Feature",
            "properties": {
                "name": "GMS60AM9009"
            },
            "geometry": {
                "type": "Point",
                "coordinates": [
                    154.4,
                    13.9
                ]
            }
        },
        {
            "type": "Feature",
            "properties": {
                "name": "GMS60AM9010"
            },
            "geometry": {
                "type": "Point",
                "coordinates": [
                    151.7,
                    11.6
                ]
            }
        },
        {
            "type": "Feature",
            "properties": {
                "name": "GMS60AM9011"
            },
            "geometry": {
                "type": "Point",
                "coordinates": [
                    149.9,
                    10
                ]
            }
        },
        {
            "type": "Feature",
            "properties": {
                "name": "GMS60AM9012"
            },
            "geometry": {
                "type": "Point",
                "coordinates": [
                    149.5,
                    10.4
                ]
            }
        },
        {
            "type": "Feature",
            "properties": {
                "name": "GMS60AM9013"
            },
            "geometry": {
                "type": "Point",
                "coordinates": [
                    149.2,
                    14.1
                ]
            }
        },
        {
            "type": "Feature",
            "properties": {
                "name": "GMS60AM9014"
            },
            "geometry": {
                "type": "Point",
                "coordinates": [
                    149,
                    14.5
                ]
            }
        },
        {
            "type": "Feature",
            "properties": {
                "name": "GMS60AM9015"
            },
            "geometry": {
                "type": "Point",
                "coordinates": [
                    148.6,
                    17.1
                ]
            }
        },
        {
            "type": "Feature",
            "properties": {
                "name": "GMS60AM9016"
            },
            "geometry": {
                "type": "Point",
                "coordinates": [
                    148.1,
                    19.5
                ]
            }
        },
        {
            "type": "Feature",
            "properties": {
                "name": "GMS60AM9017"
            },
            "geometry": {
                "type": "Point",
                "coordinates": [
                    179.7,
                    42.4
                ]
            }
        },
        {
            "type": "Feature",
            "properties": {
                "name": "GMS60AM9018"
            },
            "geometry": {
                "type": "Point",
                "coordinates": [
                    179.6,
                    42.2
                ]
            }
        },
        {
            "type": "Feature",
            "properties": {
                "name": "GMS60AM9019"
            },
            "geometry": {
                "type": "Point",
                "coordinates": [
                    179.9,
                    42
                ]
            }
        },
        {
            "type": "Feature",
            "properties": {
                "name": "GMS60AM9020"
            },
            "geometry": {
                "type": "Point",
                "coordinates": [
                    179.4,
                    42.2
                ]
            }
        },
        {
            "type": "Feature",
            "properties": {
                "name": "GMS60AM9021"
            },
            "geometry": {
                "type": "Point",
                "coordinates": [
                    179.7,
                    42.1
                ]
            }
        },
        {
            "type": "Feature",
            "properties": {
                "name": "GMS60AM9022"
            },
            "geometry": {
                "type": "Point",
                "coordinates": [
                    180,
                    35.7
                ]
            }
        },
        {
            "type": "Feature",
            "properties": {
                "name": "GMS60AM9023"
            },
            "geometry": {
                "type": "Point",
                "coordinates": [
                    180,
                    32
                ]
            }
        },
        {
            "type": "Feature",
            "properties": {
                "name": "GMS60BM9024"
            },
            "geometry": {
                "type": "Point",
                "coordinates": [
                    180,
                    28.3
                ]
            }
        },
        {
            "type": "Feature",
            "properties": {
                "name": "GMS60BM9025"
            },
            "geometry": {
                "type": "Point",
                "coordinates": [
                    180,
                    24.7
                ]
            }
        },
        {
            "type": "Feature",
            "properties": {
                "name": "GMS60BM9026"
            },
            "geometry": {
                "type": "Point",
                "coordinates": [
                    180,
                    21.2
                ]
            }
        },
        {
            "type": "Feature",
            "properties": {
                "name": "GMS60BM9027"
            },
            "geometry": {
                "type": "Point",
                "coordinates": [
                    180,
                    13.5
                ]
            }
        },
        {
            "type": "Feature",
            "properties": {
                "name": "GMS60BM9028"
            },
            "geometry": {
                "type": "Point",
                "coordinates": [
                    180,
                    9.9
                ]
            }
        },
        {
            "type": "Feature",
            "properties": {
                "name": "GMS60BM9029"
            },
            "geometry": {
                "type": "Point",
                "coordinates": [
                    179,
                    -1.3
                ]
            }
        },
        {
            "type": "Feature",
            "properties": {
                "name": "GMS60BM9030"
            },
            "geometry": {
                "type": "Point",
                "coordinates": [
                    180,
                    5.3
                ]
            }
        },
        {
            "type": "Feature",
            "properties": {
                "name": "GMS60BM9031"
            },
            "geometry": {
                "type": "Point",
                "coordinates": [
                    180,
                    9.6
                ]
            }
        },
        {
            "type": "Feature",
            "properties": {
                "name": "GMS60BM9032"
            },
            "geometry": {
                "type": "Point",
                "coordinates": [
                    177.4,
                    12.2
                ]
            }
        },
        {
            "type": "Feature",
            "properties": {
                "name": "GMS60BM9033"
            },
            "geometry": {
                "type": "Point",
                "coordinates": [
                    175.4,
                    13.4
                ]
            }
        },
        {
            "type": "Feature",
            "properties": {
                "name": "GMS60CM9034"
            },
            "geometry": {
                "type": "Point",
                "coordinates": [
                    179.2,
                    41.8
                ]
            }
        },
        {
            "type": "Feature",
            "properties": {
                "name": "GMS60CM9035"
            },
            "geometry": {
                "type": "Point",
                "coordinates": [
                    179.5,
                    42
                ]
            }
        },
        {
            "type": "Feature",
            "properties": {
                "name": "GMS60CM9036"
            },
            "geometry": {
                "type": "Point",
                "coordinates": [
                    179.5,
                    39
                ]
            }
        },
        {
            "type": "Feature",
            "properties": {
                "name": "GMS60CM9037"
            },
            "geometry": {
                "type": "Point",
                "coordinates": [
                    179.8,
                    38
                ]
            }
        },
        {
            "type": "Feature",
            "properties": {
                "name": "GMS60CM9038"
            },
            "geometry": {
                "type": "Point",
                "coordinates": [
                    179.8,
                    34
                ]
            }
        },
        {
            "type": "Feature",
            "properties": {
                "name": "GMS60CM9039"
            },
            "geometry": {
                "type": "Point",
                "coordinates": [
                    179.8,
                    27.1
                ]
            }
        },
        {
            "type": "Feature",
            "properties": {
                "name": "GMS60CM9040"
            },
            "geometry": {
                "type": "Point",
                "coordinates": [
                    179.8,
                    23.5
                ]
            }
        },
        {
            "type": "Feature",
            "properties": {
                "name": "GMS60CM9041"
            },
            "geometry": {
                "type": "Point",
                "coordinates": [
                    179.8,
                    19.9
                ]
            }
        },
        {
            "type": "Feature",
            "properties": {
                "name": "GMS60CM9042"
            },
            "geometry": {
                "type": "Point",
                "coordinates": [
                    179.8,
                    12.9
                ]
            }
        },
        {
            "type": "Feature",
            "properties": {
                "name": "GMS60CM9043"
            },
            "geometry": {
                "type": "Point",
                "coordinates": [
                    179.8,
                    9.7
                ]
            }
        },
        {
            "type": "Feature",
            "properties": {
                "name": "GMS60CM9044"
            },
            "geometry": {
                "type": "Point",
                "coordinates": [
                    179.8,
                    3.2
                ]
            }
        },
        {
            "type": "Feature",
            "properties": {
                "name": "GMS60CM9045"
            },
            "geometry": {
                "type": "Point",
                "coordinates": [
                    179.8,
                    0.1
                ]
            }
        },
        {
            "type": "Feature",
            "properties": {
                "name": "GNIIP LC(T2)"
            },
            "geometry": {
                "type": "Point",
                "coordinates": [
                    41.083,
                    63.083
                ]
            }
        },
        {
            "type": "Feature",
            "properties": {
                "name": "GNIIP LC(T3)"
            },
            "geometry": {
                "type": "Point",
                "coordinates": [
                    41.092,
                    63.1
                ]
            }
        },
        {
            "type": "Feature",
            "properties": {
                "name": "GNIIP LC(T4)"
            },
            "geometry": {
                "type": "Point",
                "coordinates": [
                    41.12,
                    63.11
                ]
            }
        },
        {
            "type": "Feature",
            "properties": {
                "name": "GNIIP LC158"
            },
            "geometry": {
                "type": "Point",
                "coordinates": [
                    41.08,
                    63.05
                ]
            }
        },
        {
            "type": "Feature",
            "properties": {
                "name": "GNIIP LC167"
            },
            "geometry": {
                "type": "Point",
                "coordinates": [
                    41.13,
                    62.98
                ]
            }
        },
        {
            "type": "Feature",
            "properties": {
                "name": "Grushnoye"
            },
            "geometry": {
                "type": "Point",
                "coordinates": [
                    30.4,
                    51.6
                ]
            }
        },
        {
            "type": "Feature",
            "properties": {
                "name": "GTIDZ -"
            },
            "geometry": {
                "type": "Point",
                "coordinates": [
                    -71,
                    21
                ]
            }
        },
        {
            "type": "Feature",
            "properties": {
                "name": "GTsP- LC107"
            },
            "geometry": {
                "type": "Point",
                "coordinates": [
                    46.3,
                    48.6
                ]
            }
        },
        {
            "type": "Feature",
            "properties": {
                "name": "GTsP- LC107/1"
            },
            "geometry": {
                "type": "Point",
                "coordinates": [
                    46.3001,
                    48.5406
                ]
            }
        },
        {
            "type": "Feature",
            "properties": {
                "name": "GTsP- LC107/2"
            },
            "geometry": {
                "type": "Point",
                "coordinates": [
                    46.2978,
                    48.54
                ]
            }
        },
        {
            "type": "Feature",
            "properties": {
                "name": "GTsP- MR-100"
            },
            "geometry": {
                "type": "Point",
                "coordinates": [
                    46.23,
                    48.67
                ]
            }
        },
        {
            "type": "Feature",
            "properties": {
                "name": "GTsP- PL87"
            },
            "geometry": {
                "type": "Point",
                "coordinates": [
                    45.8,
                    48.5
                ]
            }
        },
        {
            "type": "Feature",
            "properties": {
                "name": "Guiana Space Centre (Europe's Spaceport)"
            },
            "geometry": {
                "type": "Point",
                "coordinates": [
                    -52.6903,
                    5.169
                ]
            }
        },
        {
            "type": "Feature",
            "properties": {
                "name": "HADC  A"
            },
            "geometry": {
                "type": "Point",
                "coordinates": [
                    106.1228,
                    32.8931
                ]
            }
        },
        {
            "type": "Feature",
            "properties": {
                "name": "HADC  NATIV"
            },
            "geometry": {
                "type": "Point",
                "coordinates": [
                    106.1272,
                    32.8892
                ]
            }
        },
        {
            "type": "Feature",
            "properties": {
                "name": "HADC  SLED"
            },
            "geometry": {
                "type": "Point",
                "coordinates": [
                    106.1499,
                    32.8848
                ]
            }
        },
        {
            "type": "Feature",
            "properties": {
                "name": "HADC  ZEL"
            },
            "geometry": {
                "type": "Point",
                "coordinates": [
                    106.1475,
                    32.8665
                ]
            }
        },
        {
            "type": "Feature",
            "properties": {
                "name": "Hickam RW08R/26L"
            },
            "geometry": {
                "type": "Point",
                "coordinates": [
                    157.9824,
                    21.3066
                ]
            }
        },
        {
            "type": "Feature",
            "properties": {
                "name": "Huainan Satellite Launch Center"
            },
            "geometry": {
                "type": "Point",
                "coordinates": [
                    116.2044,
                    32.7286
                ]
            }
        },
        {
            "type": "Feature",
            "properties": {
                "name": "Huang Hai"
            },
            "geometry": {
                "type": "Point",
                "coordinates": [
                    123.8,
                    32.19
                ]
            }
        },
        {
            "type": "Feature",
            "properties": {
                "name": "Huang Hai"
            },
            "geometry": {
                "type": "Point",
                "coordinates": [
                    123.7611,
                    34.3117
                ]
            }
        },
        {
            "type": "Feature",
            "properties": {
                "name": "Huang Hai"
            },
            "geometry": {
                "type": "Point",
                "coordinates": [
                    121.19,
                    34.9
                ]
            }
        },
        {
            "type": "Feature",
            "properties": {
                "name": "Huang Hai"
            },
            "geometry": {
                "type": "Point",
                "coordinates": [
                    121.1983,
                    36.631
                ]
            }
        },
        {
            "type": "Feature",
            "properties": {
                "name": "Huang Hai"
            },
            "geometry": {
                "type": "Point",
                "coordinates": [
                    123.7115,
                    37.3395
                ]
            }
        },
        {
            "type": "Feature",
            "properties": {
                "name": "Hydra South"
            },
            "geometry": {
                "type": "Point",
                "coordinates": [
                    120,
                    0
                ]
            }
        },
        {
            "type": "Feature",
            "properties": {
                "name": "Indian Springs"
            },
            "geometry": {
                "type": "Point",
                "coordinates": [
                    115.6717,
                    36.5893
                ]
            }
        },
        {
            "type": "Feature",
            "properties": {
                "name": "Jilin Satellite Launch Center"
            },
            "geometry": {
                "type": "Point",
                "coordinates": [
                    126.4497,
                    42.0208
                ]
            }
        },
        {
            "type": "Feature",
            "properties": {
                "name": "Jingyu LP1"
            },
            "geometry": {
                "type": "Point",
                "coordinates": [
                    126.883,
                    42.286
                ]
            }
        },
        {
            "type": "Feature",
            "properties": {
                "name": "Jingyu LP2"
            },
            "geometry": {
                "type": "Point",
                "coordinates": [
                    126.8818,
                    42.2873
                ]
            }
        },
        {
            "type": "Feature",
            "properties": {
                "name": "Jiuquan Satellite Launch Center"
            },
            "geometry": {
                "type": "Point",
                "coordinates": [
                    100.2967,
                    40.9589
                ]
            }
        },
        {
            "type": "Feature",
            "properties": {
                "name": "Jiuquan South Launch Site"
            },
            "geometry": {
                "type": "Point",
                "coordinates": [
                    100.2967,
                    40.9589
                ]
            }
        },
        {
            "type": "Feature",
            "properties": {
                "name": "JQ    LA2A"
            },
            "geometry": {
                "type": "Point",
                "coordinates": [
                    100.3133,
                    41.3062
                ]
            }
        },
        {
            "type": "Feature",
            "properties": {
                "name": "JQ    LA2B"
            },
            "geometry": {
                "type": "Point",
                "coordinates": [
                    100.3188,
                    41.3065
                ]
            }
        },
        {
            "type": "Feature",
            "properties": {
                "name": "JQ    LA3"
            },
            "geometry": {
                "type": "Point",
                "coordinates": [
                    100.3047,
                    41.2805
                ]
            }
        },
        {
            "type": "Feature",
            "properties": {
                "name": "JQ    LA3"
            },
            "geometry": {
                "type": "Point",
                "coordinates": [
                    100.3048,
                    41.2831
                ]
            }
        },
        {
            "type": "Feature",
            "properties": {
                "name": "JQ    LC130"
            },
            "geometry": {
                "type": "Point",
                "coordinates": [
                    100.2242,
                    40.8184
                ]
            }
        },
        {
            "type": "Feature",
            "properties": {
                "name": "JQ    SLS"
            },
            "geometry": {
                "type": "Point",
                "coordinates": [
                    100.2912,
                    40.958
                ]
            }
        },
        {
            "type": "Feature",
            "properties": {
                "name": "JQ    SLS-1"
            },
            "geometry": {
                "type": "Point",
                "coordinates": [
                    100.2912,
                    40.958
                ]
            }
        },
        {
            "type": "Feature",
            "properties": {
                "name": "JQ    SLS-1"
            },
            "geometry": {
                "type": "Point",
                "coordinates": [
                    100.2912,
                    40.958
                ]
            }
        },
        {
            "type": "Feature",
            "properties": {
                "name": "JQ    SLS-1"
            },
            "geometry": {
                "type": "Point",
                "coordinates": [
                    100.2912,
                    40.958
                ]
            }
        },
        {
            "type": "Feature",
            "properties": {
                "name": "JQ    SLS-2"
            },
            "geometry": {
                "type": "Point",
                "coordinates": [
                    100.298,
                    40.9605
                ]
            }
        },
        {
            "type": "Feature",
            "properties": {
                "name": "JQ    SLS-2"
            },
            "geometry": {
                "type": "Point",
                "coordinates": [
                    100.298,
                    40.9605
                ]
            }
        },
        {
            "type": "Feature",
            "properties": {
                "name": "JQ    SLS-2"
            },
            "geometry": {
                "type": "Point",
                "coordinates": [
                    100.298,
                    40.9605
                ]
            }
        },
        {
            "type": "Feature",
            "properties": {
                "name": "JQ    SLS-E"
            },
            "geometry": {
                "type": "Point",
                "coordinates": [
                    100.344,
                    40.969
                ]
            }
        },
        {
            "type": "Feature",
            "properties": {
                "name": "JQ    SLS-E"
            },
            "geometry": {
                "type": "Point",
                "coordinates": [
                    100.3435,
                    40.9691
                ]
            }
        },
        {
            "type": "Feature",
            "properties": {
                "name": "JQ    SLS-E"
            },
            "geometry": {
                "type": "Point",
                "coordinates": [
                    100.3435,
                    40.9691
                ]
            }
        },
        {
            "type": "Feature",
            "properties": {
                "name": "JQ LC43/96"
            },
            "geometry": {
                "type": "Point",
                "coordinates": [
                    100.2456,
                    40.9149
                ]
            }
        },
        {
            "type": "Feature",
            "properties": {
                "name": "Kalinkavichy"
            },
            "geometry": {
                "type": "Point",
                "coordinates": [
                    29.3,
                    52.1
                ]
            }
        },
        {
            "type": "Feature",
            "properties": {
                "name": "Kapustin Yar Cosmodrome"
            },
            "geometry": {
                "type": "Point",
                "coordinates": [
                    46.275,
                    48.5758
                ]
            }
        },
        {
            "type": "Feature",
            "properties": {
                "name": "KASC  K"
            },
            "geometry": {
                "type": "Point",
                "coordinates": [
                    131.082,
                    31.247
                ]
            }
        },
        {
            "type": "Feature",
            "properties": {
                "name": "KASC  M-V"
            },
            "geometry": {
                "type": "Point",
                "coordinates": [
                    131.085,
                    31.247
                ]
            }
        },